tests/io/ccsds/data/tdm.kvn

CCSDS_TDM_VERS = 1.0
CREATION_DATE = 2022-05-14T13:26:38.433141
ORIGINATOR = N/A

META_START
TIME_SYSTEM          = UTC
START_TIME           = 2008-09-20T18:16:03.690790
STOP_TIME            = 2008-09-20T18:24:58.690790
PARTICIPANT_1        = Toulouse
PARTICIPANT_2        = 1998-067A
MODE                 = SEQUENTIAL
PATH                 = 1,2,1
RANGE_UNITS          = km
ANGLE_TYPE           = AZEL
META_STOP

DATA_START
RANGE                = 2008-09-20T18:16:03.690790 4304.325558
ANGLE_1              = 2008-09-20T18:16:03.690790 199.84
ANGLE_2              = 2008-09-20T18:16:03.690790 0.00
RANGE                = 2008-09-20T18:16:08.690790 4240.967767
ANGLE_1              = 2008-09-20T18:16:08.690790 199.41
ANGLE_2              = 2008-09-20T18:16:08.690790 0.29
RANGE                = 2008-09-20T18:16:13.690790 4177.837581
ANGLE_1              = 2008-09-20T18:16:13.690790 198.98
ANGLE_2              = 2008-09-20T18:16:13.690790 0.58
RANGE                = 2008-09-20T18:16:18.690790 4114.948083
ANGLE_1              = 2008-09-20T18:16:18.690790 198.52
ANGLE_2              = 2008-09-20T18:16:18.690790 0.87
RANGE                = 2008-09-20T18:16:23.690790 4052.313019
ANGLE_1              = 2008-09-20T18:16:23.690790 198.06
ANGLE_2              = 2008-09-20T18:16:23.690790 1.17
RANGE                = 2008-09-20T18:16:28.690790 3989.945347
ANGLE_1              = 2008-09-20T18:16:28.690790 197.58
ANGLE_2              = 2008-09-20T18:16:28.690790 1.47
RANGE                = 2008-09-20T18:16:33.690790 3927.860384
ANGLE_1              = 2008-09-20T18:16:33.690790 197.08
ANGLE_2              = 2008-09-20T18:16:33.690790 1.78
RANGE                = 2008-09-20T18:16:38.690790 3866.074264
ANGLE_1              = 2008-09-20T18:16:38.690790 196.56
ANGLE_2              = 2008-09-20T18:16:38.690790 2.09
RANGE                = 2008-09-20T18:16:43.690790 3804.602514
ANGLE_1              = 2008-09-20T18:16:43.690790 196.03
ANGLE_2              = 2008-09-20T18:16:43.690790 2.40
RANGE                = 2008-09-20T18:16:48.690790 3743.463168
ANGLE_1              = 2008-09-20T18:16:48.690790 195.48
ANGLE_2              = 2008-09-20T18:16:48.690790 2.72
RANGE                = 2008-09-20T18:16:53.690790 3682.675261
ANGLE_1              = 2008-09-20T18:16:53.690790 194.92
ANGLE_2              = 2008-09-20T18:16:53.690790 3.04
RANGE                = 2008-09-20T18:16:58.690790 3622.257445
ANGLE_1              = 2008-09-20T18:16:58.690790 194.33
ANGLE_2              = 2008-09-20T18:16:58.690790 3.37
RANGE                = 2008-09-20T18:17:03.690790 3562.231061
ANGLE_1              = 2008-09-20T18:17:03.690790 193.72
ANGLE_2              = 2008-09-20T18:17:03.690790 3.70
RANGE                = 2008-09-20T18:17:08.690790 3502.618671
ANGLE_1              = 2008-09-20T18:17:08.690790 193.09
ANGLE_2              = 2008-09-20T18:17:08.690790 4.03
RANGE                = 2008-09-20T18:17:13.690790 3443.442724
ANGLE_1              = 2008-09-20T18:17:13.690790 192.44
ANGLE_2              = 2008-09-20T18:17:13.690790 4.37
RANGE                = 2008-09-20T18:17:18.690790 3384.728574
ANGLE_1              = 2008-09-20T18:17:18.690790 191.76
ANGLE_2              = 2008-09-20T18:17:18.690790 4.71
RANGE                = 2008-09-20T18:17:23.690790 3326.503065
ANGLE_1              = 2008-09-20T18:17:23.690790 191.06
ANGLE_2              = 2008-09-20T18:17:23.690790 5.06
RANGE                = 2008-09-20T18:17:28.690790 3268.793242
ANGLE_1              = 2008-09-20T18:17:28.690790 190.34
ANGLE_2              = 2008-09-20T18:17:28.690790 5.42
RANGE                = 2008-09-20T18:17:33.690790 3211.629311
ANGLE_1              = 2008-09-20T18:17:33.690790 189.58
ANGLE_2              = 2008-09-20T18:17:33.690790 5.77
RANGE                = 2008-09-20T18:17:38.690790 3155.043276
ANGLE_1              = 2008-09-20T18:17:38.690790 188.80
ANGLE_2              = 2008-09-20T18:17:38.690790 6.14
RANGE                = 2008-09-20T18:17:43.690790 3099.067710
ANGLE_1              = 2008-09-20T18:17:43.690790 187.99
ANGLE_2              = 2008-09-20T18:17:43.690790 6.50
RANGE                = 2008-09-20T18:17:48.690790 3043.738635
ANGLE_1              = 2008-09-20T18:17:48.690790 187.14
ANGLE_2              = 2008-09-20T18:17:48.690790 6.88
RANGE                = 2008-09-20T18:17:53.690790 2989.094212
ANGLE_1              = 2008-09-20T18:17:53.690790 186.26
ANGLE_2              = 2008-09-20T18:17:53.690790 7.25
RANGE                = 2008-09-20T18:17:58.690790 2935.173577
ANGLE_1              = 2008-09-20T18:17:58.690790 185.35
ANGLE_2              = 2008-09-20T18:17:58.690790 7.64
RANGE                = 2008-09-20T18:18:03.690790 2882.019615
ANGLE_1              = 2008-09-20T18:18:03.690790 184.41
ANGLE_2              = 2008-09-20T18:18:03.690790 8.02
RANGE                = 2008-09-20T18:18:08.690790 2829.677711
ANGLE_1              = 2008-09-20T18:18:08.690790 183.42
ANGLE_2              = 2008-09-20T18:18:08.690790 8.41
RANGE                = 2008-09-20T18:18:13.690790 2778.194632
ANGLE_1              = 2008-09-20T18:18:13.690790 182.40
ANGLE_2              = 2008-09-20T18:18:13.690790 8.81
RANGE                = 2008-09-20T18:18:18.690790 2727.621175
ANGLE_1              = 2008-09-20T18:18:18.690790 181.33
ANGLE_2              = 2008-09-20T18:18:18.690790 9.20
RANGE                = 2008-09-20T18:18:23.690790 2678.010953
ANGLE_1              = 2008-09-20T18:18:23.690790 180.22
ANGLE_2              = 2008-09-20T18:18:23.690790 9.61
RANGE                = 2008-09-20T18:18:28.690790 2629.419323
ANGLE_1              = 2008-09-20T18:18:28.690790 179.07
ANGLE_2              = 2008-09-20T18:18:28.690790 10.01
RANGE                = 2008-09-20T18:18:33.690790 2581.905849
ANGLE_1              = 2008-09-20T18:18:33.690790 177.87
ANGLE_2              = 2008-09-20T18:18:33.690790 10.42
RANGE                = 2008-09-20T18:18:38.690790 2535.533101
ANGLE_1              = 2008-09-20T18:18:38.690790 176.62
ANGLE_2              = 2008-09-20T18:18:38.690790 10.82
RANGE                = 2008-09-20T18:18:43.690790 2490.365598
ANGLE_1              = 2008-09-20T18:18:43.690790 175.33
ANGLE_2              = 2008-09-20T18:18:43.690790 11.23
RANGE                = 2008-09-20T18:18:48.690790 2446.472017
ANGLE_1              = 2008-09-20T18:18:48.690790 173.98
ANGLE_2              = 2008-09-20T18:18:48.690790 11.64
RANGE                = 2008-09-20T18:18:53.690790 2403.923951
ANGLE_1              = 2008-09-20T18:18:53.690790 172.58
ANGLE_2              = 2008-09-20T18:18:53.690790 12.05
RANGE                = 2008-09-20T18:18:58.690790 2362.794836
ANGLE_1              = 2008-09-20T18:18:58.690790 171.12
ANGLE_2              = 2008-09-20T18:18:58.690790 12.45
RANGE                = 2008-09-20T18:19:03.690790 2323.161801
ANGLE_1              = 2008-09-20T18:19:03.690790 169.61
ANGLE_2              = 2008-09-20T18:19:03.690790 12.85
RANGE                = 2008-09-20T18:19:08.690790 2285.104326
ANGLE_1              = 2008-09-20T18:19:08.690790 168.04
ANGLE_2              = 2008-09-20T18:19:08.690790 13.25
RANGE                = 2008-09-20T18:19:13.690790 2248.703095
ANGLE_1              = 2008-09-20T18:19:13.690790 166.41
ANGLE_2              = 2008-09-20T18:19:13.690790 13.64
RANGE                = 2008-09-20T18:19:18.690790 2214.041382
ANGLE_1              = 2008-09-20T18:19:18.690790 164.73
ANGLE_2              = 2008-09-20T18:19:18.690790 14.02
RANGE                = 2008-09-20T18:19:23.690790 2181.203547
ANGLE_1              = 2008-09-20T18:19:23.690790 162.99
ANGLE_2              = 2008-09-20T18:19:23.690790 14.39
RANGE                = 2008-09-20T18:19:28.690790 2150.273769
ANGLE_1              = 2008-09-20T18:19:28.690790 161.19
ANGLE_2              = 2008-09-20T18:19:28.690790 14.75
RANGE                = 2008-09-20T18:19:33.690790 2121.336876
ANGLE_1              = 2008-09-20T18:19:33.690790 159.33
ANGLE_2              = 2008-09-20T18:19:33.690790 15.09
RANGE                = 2008-09-20T18:19:38.690790 2094.476663
ANGLE_1              = 2008-09-20T18:19:38.690790 157.42
ANGLE_2              = 2008-09-20T18:19:38.690790 15.42
RANGE                = 2008-09-20T18:19:43.690790 2069.774521
ANGLE_1              = 2008-09-20T18:19:43.690790 155.45
ANGLE_2              = 2008-09-20T18:19:43.690790 15.72
RANGE                = 2008-09-20T18:19:48.690790 2047.309684
ANGLE_1              = 2008-09-20T18:19:48.690790 153.43
ANGLE_2              = 2008-09-20T18:19:48.690790 16.01
RANGE                = 2008-09-20T18:19:53.690790 2027.157324
ANGLE_1              = 2008-09-20T18:19:53.690790 151.36
ANGLE_2              = 2008-09-20T18:19:53.690790 16.27
RANGE                = 2008-09-20T18:19:58.690790 2009.387891
ANGLE_1              = 2008-09-20T18:19:58.690790 149.25
ANGLE_2              = 2008-09-20T18:19:58.690790 16.50
RANGE                = 2008-09-20T18:20:03.690790 1994.065506
ANGLE_1              = 2008-09-20T18:20:03.690790 147.10
ANGLE_2              = 2008-09-20T18:20:03.690790 16.71
RANGE                = 2008-09-20T18:20:08.690790 1981.247648
ANGLE_1              = 2008-09-20T18:20:08.690790 144.91
ANGLE_2              = 2008-09-20T18:20:08.690790 16.88
RANGE                = 2008-09-20T18:20:13.690790 1970.983764
ANGLE_1              = 2008-09-20T18:20:13.690790 142.69
ANGLE_2              = 2008-09-20T18:20:13.690790 17.02
RANGE                = 2008-09-20T18:20:18.690790 1963.314220
ANGLE_1              = 2008-09-20T18:20:18.690790 140.45
ANGLE_2              = 2008-09-20T18:20:18.690790 17.13
RANGE                = 2008-09-20T18:20:23.690790 1958.269898
ANGLE_1              = 2008-09-20T18:20:23.690790 138.19
ANGLE_2              = 2008-09-20T18:20:23.690790 17.20
RANGE                = 2008-09-20T18:20:28.690790 1955.871385
ANGLE_1              = 2008-09-20T18:20:28.690790 135.93
ANGLE_2              = 2008-09-20T18:20:28.690790 17.23
RANGE                = 2008-09-20T18:20:33.690790 1956.128616
ANGLE_1              = 2008-09-20T18:20:33.690790 133.66
ANGLE_2              = 2008-09-20T18:20:33.690790 17.23
RANGE                = 2008-09-20T18:20:38.690790 1959.040628
ANGLE_1              = 2008-09-20T18:20:38.690790 131.39
ANGLE_2              = 2008-09-20T18:20:38.690790 17.19
RANGE                = 2008-09-20T18:20:43.690790 1964.595580
ANGLE_1              = 2008-09-20T18:20:43.690790 129.14
ANGLE_2              = 2008-09-20T18:20:43.690790 17.12
RANGE                = 2008-09-20T18:20:48.690790 1972.771240
ANGLE_1              = 2008-09-20T18:20:48.690790 126.90
ANGLE_2              = 2008-09-20T18:20:48.690790 17.01
RANGE                = 2008-09-20T18:20:53.690790 1983.534970
ANGLE_1              = 2008-09-20T18:20:53.690790 124.69
ANGLE_2              = 2008-09-20T18:20:53.690790 16.86
RANGE                = 2008-09-20T18:20:58.690790 1996.844581
ANGLE_1              = 2008-09-20T18:20:58.690790 122.51
ANGLE_2              = 2008-09-20T18:20:58.690790 16.69
RANGE                = 2008-09-20T18:21:03.690790 2012.649550
ANGLE_1              = 2008-09-20T18:21:03.690790 120.36
ANGLE_2              = 2008-09-20T18:21:03.690790 16.48
RANGE                = 2008-09-20T18:21:08.690790 2030.891088
ANGLE_1              = 2008-09-20T18:21:08.690790 118.26
ANGLE_2              = 2008-09-20T18:21:08.690790 16.24
RANGE                = 2008-09-20T18:21:13.690790 2051.503577
ANGLE_1              = 2008-09-20T18:21:13.690790 116.20
ANGLE_2              = 2008-09-20T18:21:13.690790 15.98
RANGE                = 2008-09-20T18:21:18.690790 2074.416218
ANGLE_1              = 2008-09-20T18:21:18.690790 114.19
ANGLE_2              = 2008-09-20T18:21:18.690790 15.70
RANGE                = 2008-09-20T18:21:23.690790 2099.552901
ANGLE_1              = 2008-09-20T18:21:23.690790 112.23
ANGLE_2              = 2008-09-20T18:21:23.690790 15.39
RANGE                = 2008-09-20T18:21:28.690790 2126.833886
ANGLE_1              = 2008-09-20T18:21:28.690790 110.33
ANGLE_2              = 2008-09-20T18:21:28.690790 15.06
RANGE                = 2008-09-20T18:21:33.690790 2156.177563
ANGLE_1              = 2008-09-20T18:21:33.690790 108.48
ANGLE_2              = 2008-09-20T18:21:33.690790 14.72
RANGE                = 2008-09-20T18:21:38.690790 2187.499868
ANGLE_1              = 2008-09-20T18:21:38.690790 106.69
ANGLE_2              = 2008-09-20T18:21:38.690790 14.36
RANGE                = 2008-09-20T18:21:43.690790 2220.715961
ANGLE_1              = 2008-09-20T18:21:43.690790 104.96
ANGLE_2              = 2008-09-20T18:21:43.690790 13.99
RANGE                = 2008-09-20T18:21:48.690790 2255.741879
ANGLE_1              = 2008-09-20T18:21:48.690790 103.29
ANGLE_2              = 2008-09-20T18:21:48.690790 13.61
RANGE                = 2008-09-20T18:21:53.690790 2292.493393
ANGLE_1              = 2008-09-20T18:21:53.690790 101.67
ANGLE_2              = 2008-09-20T18:21:53.690790 13.22
RANGE                = 2008-09-20T18:21:58.690790 2330.887553
ANGLE_1              = 2008-09-20T18:21:58.690790 100.11
ANGLE_2              = 2008-09-20T18:21:58.690790 12.82
RANGE                = 2008-09-20T18:22:03.690790 2370.844150
ANGLE_1              = 2008-09-20T18:22:03.690790 98.61
ANGLE_2              = 2008-09-20T18:22:03.690790 12.42
RANGE                = 2008-09-20T18:22:08.690790 2412.284153
ANGLE_1              = 2008-09-20T18:22:08.690790 97.17
ANGLE_2              = 2008-09-20T18:22:08.690790 12.02
RANGE                = 2008-09-20T18:22:13.690790 2455.130868
ANGLE_1              = 2008-09-20T18:22:13.690790 95.78
ANGLE_2              = 2008-09-20T18:22:13.690790 11.61
RANGE                = 2008-09-20T18:22:18.690790 2499.311500
ANGLE_1              = 2008-09-20T18:22:18.690790 94.44
ANGLE_2              = 2008-09-20T18:22:18.690790 11.20
RANGE                = 2008-09-20T18:22:23.690790 2544.755017
ANGLE_1              = 2008-09-20T18:22:23.690790 93.15
ANGLE_2              = 2008-09-20T18:22:23.690790 10.80
RANGE                = 2008-09-20T18:22:28.690790 2591.393244
ANGLE_1              = 2008-09-20T18:22:28.690790 91.91
ANGLE_2              = 2008-09-20T18:22:28.690790 10.39
RANGE                = 2008-09-20T18:22:33.690790 2639.162341
ANGLE_1              = 2008-09-20T18:22:33.690790 90.73
ANGLE_2              = 2008-09-20T18:22:33.690790 9.99
RANGE                = 2008-09-20T18:22:38.690790 2688.000318
ANGLE_1              = 2008-09-20T18:22:38.690790 89.58
ANGLE_2              = 2008-09-20T18:22:38.690790 9.58
RANGE                = 2008-09-20T18:22:43.690790 2737.848110
ANGLE_1              = 2008-09-20T18:22:43.690790 88.48
ANGLE_2              = 2008-09-20T18:22:43.690790 9.18
RANGE                = 2008-09-20T18:22:48.690790 2788.651010
ANGLE_1              = 2008-09-20T18:22:48.690790 87.43
ANGLE_2              = 2008-09-20T18:22:48.690790 8.79
RANGE                = 2008-09-20T18:22:53.690790 2840.355950
ANGLE_1              = 2008-09-20T18:22:53.690790 86.41
ANGLE_2              = 2008-09-20T18:22:53.690790 8.39
RANGE                = 2008-09-20T18:22:58.690790 2892.912588
ANGLE_1              = 2008-09-20T18:22:58.690790 85.44
ANGLE_2              = 2008-09-20T18:22:58.690790 8.00
RANGE                = 2008-09-20T18:23:03.690790 2946.274745
ANGLE_1              = 2008-09-20T18:23:03.690790 84.50
ANGLE_2              = 2008-09-20T18:23:03.690790 7.62
RANGE                = 2008-09-20T18:23:08.690790 3000.397523
ANGLE_1              = 2008-09-20T18:23:08.690790 83.60
ANGLE_2              = 2008-09-20T18:23:08.690790 7.24
RANGE                = 2008-09-20T18:23:13.690790 3055.238427
ANGLE_1              = 2008-09-20T18:23:13.690790 82.73
ANGLE_2              = 2008-09-20T18:23:13.690790 6.86
RANGE                = 2008-09-20T18:23:18.690790 3110.758842
ANGLE_1              = 2008-09-20T18:23:18.690790 81.89
ANGLE_2              = 2008-09-20T18:23:18.690790 6.49
RANGE                = 2008-09-20T18:23:23.690790 3166.921021
ANGLE_1              = 2008-09-20T18:23:23.690790 81.09
ANGLE_2              = 2008-09-20T18:23:23.690790 6.13
RANGE                = 2008-09-20T18:23:28.690790 3223.689270
ANGLE_1              = 2008-09-20T18:23:28.690790 80.31
ANGLE_2              = 2008-09-20T18:23:28.690790 5.77
RANGE                = 2008-09-20T18:23:33.690790 3281.031463
ANGLE_1              = 2008-09-20T18:23:33.690790 79.57
ANGLE_2              = 2008-09-20T18:23:33.690790 5.41
RANGE                = 2008-09-20T18:23:38.690790 3338.915946
ANGLE_1              = 2008-09-20T18:23:38.690790 78.85
ANGLE_2              = 2008-09-20T18:23:38.690790 5.06
RANGE                = 2008-09-20T18:23:43.690790 3397.313277
ANGLE_1              = 2008-09-20T18:23:43.690790 78.15
ANGLE_2              = 2008-09-20T18:23:43.690790 4.71
RANGE                = 2008-09-20T18:23:48.690790 3456.195296
ANGLE_1              = 2008-09-20T18:23:48.690790 77.48
ANGLE_2              = 2008-09-20T18:23:48.690790 4.37
RANGE                = 2008-09-20T18:23:53.690790 3515.536947
ANGLE_1              = 2008-09-20T18:23:53.690790 76.84
ANGLE_2              = 2008-09-20T18:23:53.690790 4.03
RANGE                = 2008-09-20T18:23:58.690790 3575.313098
ANGLE_1              = 2008-09-20T18:23:58.690790 76.22
ANGLE_2              = 2008-09-20T18:23:58.690790 3.70
RANGE                = 2008-09-20T18:24:03.690790 3635.500096
ANGLE_1              = 2008-09-20T18:24:03.690790 75.62
ANGLE_2              = 2008-09-20T18:24:03.690790 3.37
RANGE                = 2008-09-20T18:24:08.690790 3696.077146
ANGLE_1              = 2008-09-20T18:24:08.690790 75.03
ANGLE_2              = 2008-09-20T18:24:08.690790 3.04
RANGE                = 2008-09-20T18:24:13.690790 3757.023084
ANGLE_1              = 2008-09-20T18:24:13.690790 74.47
ANGLE_2              = 2008-09-20T18:24:13.690790 2.72
RANGE                = 2008-09-20T18:24:18.690790 3818.317978
ANGLE_1              = 2008-09-20T18:24:18.690790 73.93
ANGLE_2              = 2008-09-20T18:24:18.690790 2.40
RANGE                = 2008-09-20T18:24:23.690790 3879.944544
ANGLE_1              = 2008-09-20T18:24:23.690790 73.41
ANGLE_2              = 2008-09-20T18:24:23.690790 2.09
RANGE                = 2008-09-20T18:24:28.690790 3941.884886
ANGLE_1              = 2008-09-20T18:24:28.690790 72.90
ANGLE_2              = 2008-09-20T18:24:28.690790 1.78
RANGE                = 2008-09-20T18:24:33.690790 4004.122132
ANGLE_1              = 2008-09-20T18:24:33.690790 72.41
ANGLE_2              = 2008-09-20T18:24:33.690790 1.48
RANGE                = 2008-09-20T18:24:38.690790 4066.641889
ANGLE_1              = 2008-09-20T18:24:38.690790 71.93
ANGLE_2              = 2008-09-20T18:24:38.690790 1.18
RANGE                = 2008-09-20T18:24:43.690790 4129.428944
ANGLE_1              = 2008-09-20T18:24:43.690790 71.48
ANGLE_2              = 2008-09-20T18:24:43.690790 0.88
RANGE                = 2008-09-20T18:24:48.690790 4192.468944
ANGLE_1              = 2008-09-20T18:24:48.690790 71.03
ANGLE_2              = 2008-09-20T18:24:48.690790 0.59
RANGE                = 2008-09-20T18:24:53.690790 4255.749871
ANGLE_1              = 2008-09-20T18:24:53.690790 70.60
ANGLE_2              = 2008-09-20T18:24:53.690790 0.30
RANGE                = 2008-09-20T18:24:58.690790 4319.258722
ANGLE_1              = 2008-09-20T18:24:58.690790 70.18
ANGLE_2              = 2008-09-20T18:24:58.690790 0.01
DATA_STOP
