tests/ccsds/data/tdm.kvn

CCSDS_TDM_VERS = 1.0
CREATION_DATE = 2019-12-03T22:13:29
ORIGINATOR = N/A

META_START
TIME_SYSTEM          = UTC
START_TIME           = 2008-09-20T18:16:03.690790
STOP_TIME            = 2008-09-20T18:24:58.690790
PARTICIPANT_1        = Toulouse
PARTICIPANT_2        = 1998-067A
MODE                 = SEQUENTIAL
PATH                 = 1,2,1
RANGE_UNITS          = km
ANGLE_TYPE           = AZEL
META_STOP

DATA_START
RANGE                = 2008-09-20T18:16:03.690790      4344.529679
ANGLE_1              = 2008-09-20T18:16:03.690790       199.65
ANGLE_2              = 2008-09-20T18:16:03.690790         0.00
RANGE                = 2008-09-20T18:16:08.690790      4281.276863
ANGLE_1              = 2008-09-20T18:16:08.690790       199.22
ANGLE_2              = 2008-09-20T18:16:08.690790         0.28
RANGE                = 2008-09-20T18:16:13.690790      4218.251560
ANGLE_1              = 2008-09-20T18:16:13.690790       198.79
ANGLE_2              = 2008-09-20T18:16:13.690790         0.57
RANGE                = 2008-09-20T18:16:18.690790      4155.466727
ANGLE_1              = 2008-09-20T18:16:18.690790       198.34
ANGLE_2              = 2008-09-20T18:16:18.690790         0.86
RANGE                = 2008-09-20T18:16:23.690790      4092.935966
ANGLE_1              = 2008-09-20T18:16:23.690790       197.87
ANGLE_2              = 2008-09-20T18:16:23.690790         1.16
RANGE                = 2008-09-20T18:16:28.690790      4030.672076
ANGLE_1              = 2008-09-20T18:16:28.690790       197.39
ANGLE_2              = 2008-09-20T18:16:28.690790         1.46
RANGE                = 2008-09-20T18:16:33.690790      3968.690195
ANGLE_1              = 2008-09-20T18:16:33.690790       196.90
ANGLE_2              = 2008-09-20T18:16:33.690790         1.76
RANGE                = 2008-09-20T18:16:38.690790      3907.006251
ANGLE_1              = 2008-09-20T18:16:38.690790       196.39
ANGLE_2              = 2008-09-20T18:16:38.690790         2.07
RANGE                = 2008-09-20T18:16:43.690790      3845.635549
ANGLE_1              = 2008-09-20T18:16:43.690790       195.86
ANGLE_2              = 2008-09-20T18:16:43.690790         2.37
RANGE                = 2008-09-20T18:16:48.690790      3784.595872
ANGLE_1              = 2008-09-20T18:16:48.690790       195.31
ANGLE_2              = 2008-09-20T18:16:48.690790         2.69
RANGE                = 2008-09-20T18:16:53.690790      3723.905972
ANGLE_1              = 2008-09-20T18:16:53.690790       194.75
ANGLE_2              = 2008-09-20T18:16:53.690790         3.01
RANGE                = 2008-09-20T18:16:58.690790      3663.584189
ANGLE_1              = 2008-09-20T18:16:58.690790       194.16
ANGLE_2              = 2008-09-20T18:16:58.690790         3.33
RANGE                = 2008-09-20T18:17:03.690790      3603.651515
ANGLE_1              = 2008-09-20T18:17:03.690790       193.56
ANGLE_2              = 2008-09-20T18:17:03.690790         3.65
RANGE                = 2008-09-20T18:17:08.690790      3544.130124
ANGLE_1              = 2008-09-20T18:17:08.690790       192.93
ANGLE_2              = 2008-09-20T18:17:08.690790         3.98
RANGE                = 2008-09-20T18:17:13.690790      3485.042036
ANGLE_1              = 2008-09-20T18:17:13.690790       192.29
ANGLE_2              = 2008-09-20T18:17:13.690790         4.32
RANGE                = 2008-09-20T18:17:18.690790      3426.412127
ANGLE_1              = 2008-09-20T18:17:18.690790       191.62
ANGLE_2              = 2008-09-20T18:17:18.690790         4.65
RANGE                = 2008-09-20T18:17:23.690790      3368.266711
ANGLE_1              = 2008-09-20T18:17:23.690790       190.92
ANGLE_2              = 2008-09-20T18:17:23.690790         5.00
RANGE                = 2008-09-20T18:17:28.690790      3310.632246
ANGLE_1              = 2008-09-20T18:17:28.690790       190.20
ANGLE_2              = 2008-09-20T18:17:28.690790         5.35
RANGE                = 2008-09-20T18:17:33.690790      3253.538291
ANGLE_1              = 2008-09-20T18:17:33.690790       189.46
ANGLE_2              = 2008-09-20T18:17:33.690790         5.70
RANGE                = 2008-09-20T18:17:38.690790      3197.016134
ANGLE_1              = 2008-09-20T18:17:38.690790       188.68
ANGLE_2              = 2008-09-20T18:17:38.690790         6.05
RANGE                = 2008-09-20T18:17:43.690790      3141.097558
ANGLE_1              = 2008-09-20T18:17:43.690790       187.88
ANGLE_2              = 2008-09-20T18:17:43.690790         6.42
RANGE                = 2008-09-20T18:17:48.690790      3085.817714
ANGLE_1              = 2008-09-20T18:17:48.690790       187.04
ANGLE_2              = 2008-09-20T18:17:48.690790         6.78
RANGE                = 2008-09-20T18:17:53.690790      3031.213808
ANGLE_1              = 2008-09-20T18:17:53.690790       186.18
ANGLE_2              = 2008-09-20T18:17:53.690790         7.15
RANGE                = 2008-09-20T18:17:58.690790      2977.323925
ANGLE_1              = 2008-09-20T18:17:58.690790       185.28
ANGLE_2              = 2008-09-20T18:17:58.690790         7.52
RANGE                = 2008-09-20T18:18:03.690790      2924.189801
ANGLE_1              = 2008-09-20T18:18:03.690790       184.34
ANGLE_2              = 2008-09-20T18:18:03.690790         7.90
RANGE                = 2008-09-20T18:18:08.690790      2871.855564
ANGLE_1              = 2008-09-20T18:18:08.690790       183.37
ANGLE_2              = 2008-09-20T18:18:08.690790         8.29
RANGE                = 2008-09-20T18:18:13.690790      2820.366608
ANGLE_1              = 2008-09-20T18:18:13.690790       182.36
ANGLE_2              = 2008-09-20T18:18:13.690790         8.67
RANGE                = 2008-09-20T18:18:18.690790      2769.772242
ANGLE_1              = 2008-09-20T18:18:18.690790       181.31
ANGLE_2              = 2008-09-20T18:18:18.690790         9.06
RANGE                = 2008-09-20T18:18:23.690790      2720.124464
ANGLE_1              = 2008-09-20T18:18:23.690790       180.22
ANGLE_2              = 2008-09-20T18:18:23.690790         9.45
RANGE                = 2008-09-20T18:18:28.690790      2671.476886
ANGLE_1              = 2008-09-20T18:18:28.690790       179.09
ANGLE_2              = 2008-09-20T18:18:28.690790         9.85
RANGE                = 2008-09-20T18:18:33.690790      2623.887194
ANGLE_1              = 2008-09-20T18:18:33.690790       177.91
ANGLE_2              = 2008-09-20T18:18:33.690790        10.25
RANGE                = 2008-09-20T18:18:38.690790      2577.415949
ANGLE_1              = 2008-09-20T18:18:38.690790       176.68
ANGLE_2              = 2008-09-20T18:18:38.690790        10.64
RANGE                = 2008-09-20T18:18:43.690790      2532.125528
ANGLE_1              = 2008-09-20T18:18:43.690790       175.41
ANGLE_2              = 2008-09-20T18:18:43.690790        11.04
RANGE                = 2008-09-20T18:18:48.690790      2488.082341
ANGLE_1              = 2008-09-20T18:18:48.690790       174.08
ANGLE_2              = 2008-09-20T18:18:48.690790        11.44
RANGE                = 2008-09-20T18:18:53.690790      2445.355595
ANGLE_1              = 2008-09-20T18:18:53.690790       172.71
ANGLE_2              = 2008-09-20T18:18:53.690790        11.84
RANGE                = 2008-09-20T18:18:58.690790      2404.016233
ANGLE_1              = 2008-09-20T18:18:58.690790       171.28
ANGLE_2              = 2008-09-20T18:18:58.690790        12.23
RANGE                = 2008-09-20T18:19:03.690790      2364.138808
ANGLE_1              = 2008-09-20T18:19:03.690790       169.80
ANGLE_2              = 2008-09-20T18:19:03.690790        12.63
RANGE                = 2008-09-20T18:19:08.690790      2325.800163
ANGLE_1              = 2008-09-20T18:19:08.690790       168.26
ANGLE_2              = 2008-09-20T18:19:08.690790        13.01
RANGE                = 2008-09-20T18:19:13.690790      2289.078308
ANGLE_1              = 2008-09-20T18:19:13.690790       166.67
ANGLE_2              = 2008-09-20T18:19:13.690790        13.39
RANGE                = 2008-09-20T18:19:18.690790      2254.053857
ANGLE_1              = 2008-09-20T18:19:18.690790       165.02
ANGLE_2              = 2008-09-20T18:19:18.690790        13.77
RANGE                = 2008-09-20T18:19:23.690790      2220.808565
ANGLE_1              = 2008-09-20T18:19:23.690790       163.32
ANGLE_2              = 2008-09-20T18:19:23.690790        14.13
RANGE                = 2008-09-20T18:19:28.690790      2189.424107
ANGLE_1              = 2008-09-20T18:19:28.690790       161.56
ANGLE_2              = 2008-09-20T18:19:28.690790        14.48
RANGE                = 2008-09-20T18:19:33.690790      2159.982977
ANGLE_1              = 2008-09-20T18:19:33.690790       159.74
ANGLE_2              = 2008-09-20T18:19:33.690790        14.81
RANGE                = 2008-09-20T18:19:38.690790      2132.566881
ANGLE_1              = 2008-09-20T18:19:38.690790       157.87
ANGLE_2              = 2008-09-20T18:19:38.690790        15.13
RANGE                = 2008-09-20T18:19:43.690790      2107.255404
ANGLE_1              = 2008-09-20T18:19:43.690790       155.95
ANGLE_2              = 2008-09-20T18:19:43.690790        15.44
RANGE                = 2008-09-20T18:19:48.690790      2084.126371
ANGLE_1              = 2008-09-20T18:19:48.690790       153.97
ANGLE_2              = 2008-09-20T18:19:48.690790        15.72
RANGE                = 2008-09-20T18:19:53.690790      2063.253991
ANGLE_1              = 2008-09-20T18:19:53.690790       151.95
ANGLE_2              = 2008-09-20T18:19:53.690790        15.97
RANGE                = 2008-09-20T18:19:58.690790      2044.708272
ANGLE_1              = 2008-09-20T18:19:58.690790       149.89
ANGLE_2              = 2008-09-20T18:19:58.690790        16.21
RANGE                = 2008-09-20T18:20:03.690790      2028.553457
ANGLE_1              = 2008-09-20T18:20:03.690790       147.78
ANGLE_2              = 2008-09-20T18:20:03.690790        16.41
RANGE                = 2008-09-20T18:20:08.690790      2014.847795
ANGLE_1              = 2008-09-20T18:20:08.690790       145.64
ANGLE_2              = 2008-09-20T18:20:08.690790        16.59
RANGE                = 2008-09-20T18:20:13.690790      2003.642163
ANGLE_1              = 2008-09-20T18:20:13.690790       143.46
ANGLE_2              = 2008-09-20T18:20:13.690790        16.73
RANGE                = 2008-09-20T18:20:18.690790      1994.979015
ANGLE_1              = 2008-09-20T18:20:18.690790       141.27
ANGLE_2              = 2008-09-20T18:20:18.690790        16.84
RANGE                = 2008-09-20T18:20:23.690790      1988.892011
ANGLE_1              = 2008-09-20T18:20:23.690790       139.05
ANGLE_2              = 2008-09-20T18:20:23.690790        16.92
RANGE                = 2008-09-20T18:20:28.690790      1985.405165
ANGLE_1              = 2008-09-20T18:20:28.690790       136.82
ANGLE_2              = 2008-09-20T18:20:28.690790        16.97
RANGE                = 2008-09-20T18:20:33.690790      1984.532400
ANGLE_1              = 2008-09-20T18:20:33.690790       134.59
ANGLE_2              = 2008-09-20T18:20:33.690790        16.97
RANGE                = 2008-09-20T18:20:38.690790      1986.277288
ANGLE_1              = 2008-09-20T18:20:38.690790       132.36
ANGLE_2              = 2008-09-20T18:20:38.690790        16.95
RANGE                = 2008-09-20T18:20:43.690790      1990.632958
ANGLE_1              = 2008-09-20T18:20:43.690790       130.13
ANGLE_2              = 2008-09-20T18:20:43.690790        16.88
RANGE                = 2008-09-20T18:20:48.690790      1997.582440
ANGLE_1              = 2008-09-20T18:20:48.690790       127.92
ANGLE_2              = 2008-09-20T18:20:48.690790        16.79
RANGE                = 2008-09-20T18:20:53.690790      2007.098610
ANGLE_1              = 2008-09-20T18:20:53.690790       125.74
ANGLE_2              = 2008-09-20T18:20:53.690790        16.66
RANGE                = 2008-09-20T18:20:58.690790      2019.144888
ANGLE_1              = 2008-09-20T18:20:58.690790       123.57
ANGLE_2              = 2008-09-20T18:20:58.690790        16.49
RANGE                = 2008-09-20T18:21:03.690790      2033.676315
ANGLE_1              = 2008-09-20T18:21:03.690790       121.44
ANGLE_2              = 2008-09-20T18:21:03.690790        16.30
RANGE                = 2008-09-20T18:21:08.690790      2050.639580
ANGLE_1              = 2008-09-20T18:21:08.690790       119.35
ANGLE_2              = 2008-09-20T18:21:08.690790        16.08
RANGE                = 2008-09-20T18:21:13.690790      2069.974324
ANGLE_1              = 2008-09-20T18:21:13.690790       117.30
ANGLE_2              = 2008-09-20T18:21:13.690790        15.83
RANGE                = 2008-09-20T18:21:18.690790      2091.614678
ANGLE_1              = 2008-09-20T18:21:18.690790       115.30
ANGLE_2              = 2008-09-20T18:21:18.690790        15.56
RANGE                = 2008-09-20T18:21:23.690790      2115.489130
ANGLE_1              = 2008-09-20T18:21:23.690790       113.34
ANGLE_2              = 2008-09-20T18:21:23.690790        15.27
RANGE                = 2008-09-20T18:21:28.690790      2141.522125
ANGLE_1              = 2008-09-20T18:21:28.690790       111.44
ANGLE_2              = 2008-09-20T18:21:28.690790        14.95
RANGE                = 2008-09-20T18:21:33.690790      2169.635765
ANGLE_1              = 2008-09-20T18:21:33.690790       109.59
ANGLE_2              = 2008-09-20T18:21:33.690790        14.62
RANGE                = 2008-09-20T18:21:38.690790      2199.749267
ANGLE_1              = 2008-09-20T18:21:38.690790       107.79
ANGLE_2              = 2008-09-20T18:21:38.690790        14.28
RANGE                = 2008-09-20T18:21:43.690790      2231.780605
ANGLE_1              = 2008-09-20T18:21:43.690790       106.05
ANGLE_2              = 2008-09-20T18:21:43.690790        13.92
RANGE                = 2008-09-20T18:21:48.690790      2265.648154
ANGLE_1              = 2008-09-20T18:21:48.690790       104.37
ANGLE_2              = 2008-09-20T18:21:48.690790        13.55
RANGE                = 2008-09-20T18:21:53.690790      2301.269609
ANGLE_1              = 2008-09-20T18:21:53.690790       102.74
ANGLE_2              = 2008-09-20T18:21:53.690790        13.17
RANGE                = 2008-09-20T18:21:58.690790      2338.563542
ANGLE_1              = 2008-09-20T18:21:58.690790       101.17
ANGLE_2              = 2008-09-20T18:21:58.690790        12.78
RANGE                = 2008-09-20T18:22:03.690790      2377.450858
ANGLE_1              = 2008-09-20T18:22:03.690790        99.65
ANGLE_2              = 2008-09-20T18:22:03.690790        12.39
RANGE                = 2008-09-20T18:22:08.690790      2417.853325
ANGLE_1              = 2008-09-20T18:22:08.690790        98.19
ANGLE_2              = 2008-09-20T18:22:08.690790        11.99
RANGE                = 2008-09-20T18:22:13.690790      2459.694740
ANGLE_1              = 2008-09-20T18:22:13.690790        96.79
ANGLE_2              = 2008-09-20T18:22:13.690790        11.59
RANGE                = 2008-09-20T18:22:18.690790      2502.902506
ANGLE_1              = 2008-09-20T18:22:18.690790        95.43
ANGLE_2              = 2008-09-20T18:22:18.690790        11.19
RANGE                = 2008-09-20T18:22:23.690790      2547.405576
ANGLE_1              = 2008-09-20T18:22:23.690790        94.13
ANGLE_2              = 2008-09-20T18:22:23.690790        10.78
RANGE                = 2008-09-20T18:22:28.690790      2593.135565
ANGLE_1              = 2008-09-20T18:22:28.690790        92.87
ANGLE_2              = 2008-09-20T18:22:28.690790        10.38
RANGE                = 2008-09-20T18:22:33.690790      2640.028222
ANGLE_1              = 2008-09-20T18:22:33.690790        91.67
ANGLE_2              = 2008-09-20T18:22:33.690790         9.98
RANGE                = 2008-09-20T18:22:38.690790      2688.021037
ANGLE_1              = 2008-09-20T18:22:38.690790        90.51
ANGLE_2              = 2008-09-20T18:22:38.690790         9.58
RANGE                = 2008-09-20T18:22:43.690790      2737.054302
ANGLE_1              = 2008-09-20T18:22:43.690790        89.39
ANGLE_2              = 2008-09-20T18:22:43.690790         9.18
RANGE                = 2008-09-20T18:22:48.690790      2787.072562
ANGLE_1              = 2008-09-20T18:22:48.690790        88.32
ANGLE_2              = 2008-09-20T18:22:48.690790         8.79
RANGE                = 2008-09-20T18:22:53.690790      2838.021949
ANGLE_1              = 2008-09-20T18:22:53.690790        87.28
ANGLE_2              = 2008-09-20T18:22:53.690790         8.40
RANGE                = 2008-09-20T18:22:58.690790      2889.851267
ANGLE_1              = 2008-09-20T18:22:58.690790        86.29
ANGLE_2              = 2008-09-20T18:22:58.690790         8.01
RANGE                = 2008-09-20T18:23:03.690790      2942.513431
ANGLE_1              = 2008-09-20T18:23:03.690790        85.33
ANGLE_2              = 2008-09-20T18:23:03.690790         7.63
RANGE                = 2008-09-20T18:23:08.690790      2995.962628
ANGLE_1              = 2008-09-20T18:23:08.690790        84.41
ANGLE_2              = 2008-09-20T18:23:08.690790         7.25
RANGE                = 2008-09-20T18:23:13.690790      3050.155439
ANGLE_1              = 2008-09-20T18:23:13.690790        83.53
ANGLE_2              = 2008-09-20T18:23:13.690790         6.87
RANGE                = 2008-09-20T18:23:18.690790      3105.052303
ANGLE_1              = 2008-09-20T18:23:18.690790        82.68
ANGLE_2              = 2008-09-20T18:23:18.690790         6.50
RANGE                = 2008-09-20T18:23:23.690790      3160.614550
ANGLE_1              = 2008-09-20T18:23:23.690790        81.86
ANGLE_2              = 2008-09-20T18:23:23.690790         6.14
RANGE                = 2008-09-20T18:23:28.690790      3216.805572
ANGLE_1              = 2008-09-20T18:23:28.690790        81.07
ANGLE_2              = 2008-09-20T18:23:28.690790         5.78
RANGE                = 2008-09-20T18:23:33.690790      3273.592332
ANGLE_1              = 2008-09-20T18:23:33.690790        80.30
ANGLE_2              = 2008-09-20T18:23:33.690790         5.42
RANGE                = 2008-09-20T18:23:38.690790      3330.942300
ANGLE_1              = 2008-09-20T18:23:38.690790        79.57
ANGLE_2              = 2008-09-20T18:23:38.690790         5.07
RANGE                = 2008-09-20T18:23:43.690790      3388.825175
ANGLE_1              = 2008-09-20T18:23:43.690790        78.86
ANGLE_2              = 2008-09-20T18:23:43.690790         4.72
RANGE                = 2008-09-20T18:23:48.690790      3447.211970
ANGLE_1              = 2008-09-20T18:23:48.690790        78.18
ANGLE_2              = 2008-09-20T18:23:48.690790         4.38
RANGE                = 2008-09-20T18:23:53.690790      3506.076813
ANGLE_1              = 2008-09-20T18:23:53.690790        77.52
ANGLE_2              = 2008-09-20T18:23:53.690790         4.04
RANGE                = 2008-09-20T18:23:58.690790      3565.393802
ANGLE_1              = 2008-09-20T18:23:58.690790        76.88
ANGLE_2              = 2008-09-20T18:23:58.690790         3.70
RANGE                = 2008-09-20T18:24:03.690790      3625.138539
ANGLE_1              = 2008-09-20T18:24:03.690790        76.27
ANGLE_2              = 2008-09-20T18:24:03.690790         3.37
RANGE                = 2008-09-20T18:24:08.690790      3685.289502
ANGLE_1              = 2008-09-20T18:24:08.690790        75.68
ANGLE_2              = 2008-09-20T18:24:08.690790         3.05
RANGE                = 2008-09-20T18:24:13.690790      3745.824842
ANGLE_1              = 2008-09-20T18:24:13.690790        75.10
ANGLE_2              = 2008-09-20T18:24:13.690790         2.73
RANGE                = 2008-09-20T18:24:18.690790      3806.723970
ANGLE_1              = 2008-09-20T18:24:18.690790        74.55
ANGLE_2              = 2008-09-20T18:24:18.690790         2.41
RANGE                = 2008-09-20T18:24:23.690790      3867.968963
ANGLE_1              = 2008-09-20T18:24:23.690790        74.01
ANGLE_2              = 2008-09-20T18:24:23.690790         2.10
RANGE                = 2008-09-20T18:24:28.690790      3929.541326
ANGLE_1              = 2008-09-20T18:24:28.690790        73.50
ANGLE_2              = 2008-09-20T18:24:28.690790         1.79
RANGE                = 2008-09-20T18:24:33.690790      3991.423611
ANGLE_1              = 2008-09-20T18:24:33.690790        72.99
ANGLE_2              = 2008-09-20T18:24:33.690790         1.48
RANGE                = 2008-09-20T18:24:38.690790      4053.600869
ANGLE_1              = 2008-09-20T18:24:38.690790        72.51
ANGLE_2              = 2008-09-20T18:24:38.690790         1.18
RANGE                = 2008-09-20T18:24:43.690790      4116.057366
ANGLE_1              = 2008-09-20T18:24:43.690790        72.04
ANGLE_2              = 2008-09-20T18:24:43.690790         0.88
RANGE                = 2008-09-20T18:24:48.690790      4178.778249
ANGLE_1              = 2008-09-20T18:24:48.690790        71.58
ANGLE_2              = 2008-09-20T18:24:48.690790         0.59
RANGE                = 2008-09-20T18:24:53.690790      4241.751019
ANGLE_1              = 2008-09-20T18:24:53.690790        71.14
ANGLE_2              = 2008-09-20T18:24:53.690790         0.30
RANGE                = 2008-09-20T18:24:58.690790      4304.962221
ANGLE_1              = 2008-09-20T18:24:58.690790        70.71
ANGLE_2              = 2008-09-20T18:24:58.690790         0.01
DATA_STOP
